{
    "type": "FeatureCollection",
    "name": "E:\\Junaid\\FRANCE\\VS CODE\\new.geojson",
    "crs": {
        "type": "name",
        "properties": {
            "name": "urn:ogc:def:crs:OGC:1.3:CRS84"
        }
    },
    "features": [
        {
            "type": "Feature",
            "properties": {
                "NAME": "BOUTIQUE ELLES",
                "Category": "FRENCH",
                "Address": "BOUTIQUE ELLES,12 Place Fénelon Pinson, Montauban de Bretagne, 35360",
                "MEASURE": -999999
            },
            "geometry": {
                "type": "Point",
                "coordinates": [
                    -2.047624,
                    48.2010297
                ]
            }
        },
        {
            "type": "Feature",
            "properties": {
                "NAME": "BEAUTÉ REBELLE",
                "Category": "FRENCH",
                "Address": "BEAUTÉ REBELLE,39 Rue de Chaumont, Sanry sur Nied, 57530",
                "MEASURE": -999999
            },
            "geometry": {
                "type": "Point",
                "coordinates": [
                    6.21581,
                    49.2263848
                ]
            }
        },
        {
            "type": "Feature",
            "properties": {
                "NAME": "ANKORSTORE 75 PARIS",
                "Category": "FRENCH",
                "Address": "ANKORSTORE 75 PARIS,101 Rue de Sèvres, Paris, 75006",
                "MEASURE": -999999
            },
            "geometry": {
                "type": "Point",
                "coordinates": [
                    2.3298335,
                    48.8723646
                ]
            }
        },
        {
            "type": "Feature",
            "properties": {
                "NAME": "CITADINES 75 PARIS",
                "Category": "FRENCH",
                "Address": "CITADINES 75 PARIS,4 Rue des Innocents, Paris, 75001",
                "MEASURE": -999999
            },
            "geometry": {
                "type": "Point",
                "coordinates": [
                    2.3469937,
                    48.8607013
                ]
            }
        },
        {
            "type": "Feature",
            "properties": {
                "NAME": "FAIRE WHOLESALE B.V GRAVENHAGE",
                "Category": "INTERNATIONAL",
                "Address": "FAIRE WHOLESALE B.V GRAVENHAGE,B.V Wilhelmina van Pruisenweg 35, S-Gravenhage, 2539",
                "MEASURE": -999999
            },
            "geometry": {
                "type": "Point",
                "coordinates": [
                    4.3407928,
                    52.0794586
                ]
            }
        },
        {
            "type": "Feature",
            "properties": {
                "NAME": "HOTEL SAINT JACQUES 75 PARIS",
                "Category": "FRENCH",
                "Address": "HOTEL SAINT JACQUES 75 PARIS,35 Rue des Écoles, Paris, 75005",
                "MEASURE": -999999
            },
            "geometry": {
                "type": "Point",
                "coordinates": [
                    2.3475174,
                    48.8487731
                ]
            }
        },
        {
            "type": "Feature",
            "properties": {
                "NAME": "MADEMOISELLE C",
                "Category": "FRENCH",
                "Address": "MADEMOISELLE C,50 Avenue des Champs Élysées, Paris, 75008",
                "MEASURE": -999999
            },
            "geometry": {
                "type": "Point",
                "coordinates": [
                    2.3044092,
                    48.8716253
                ]
            }
        },
        {
            "type": "Feature",
            "properties": {
                "NAME": "IDEES EN KIT 57 WOIPPY",
                "Category": "FRENCH",
                "Address": "IDEES EN KIT 57 WOIPPY,5 Rue de l'Église, Woippy, 57140",
                "MEASURE": -999999
            },
            "geometry": {
                "type": "Point",
                "coordinates": [
                    6.1478985,
                    49.1503298
                ]
            }
        },
        {
            "type": "Feature",
            "properties": {
                "NAME": "O LES BOX 06 CANNES",
                "Category": "FRENCH",
                "Address": "O LES BOX 06 CANNES,245 Avenue Francis Tonner, Cannes La Bocca, 06150",
                "MEASURE": -999999
            },
            "geometry": {
                "type": "Point",
                "coordinates": [
                    6.959184,
                    43.554029
                ]
            }
        },
        {
            "type": "Feature",
            "properties": {
                "NAME": "WO MUM 69 LYON",
                "Category": "FRENCH",
                "Address": "WO MUM 69 LYON,E - Logik, Genay, 69730",
                "MEASURE": -999999
            },
            "geometry": {
                "type": "Point",
                "coordinates": [
                    4.8223808,
                    45.889188
                ]
            }
        },
        {
            "type": "Feature",
            "properties": {
                "NAME": "LILY N COCO 13 MARSEILLE",
                "Category": "FRENCH",
                "Address": "LILY N COCO 13 MARSEILLE,3 Rue Four du Chapitre, Marseille, 13002",
                "MEASURE": -999999
            },
            "geometry": {
                "type": "Point",
                "coordinates": [
                    5.3655457,
                    43.2987303
                ]
            }
        },
        {
            "type": "Feature",
            "properties": {
                "NAME": "ETXEAN EGINA",
                "Category": "FRENCH",
                "Address": "ETXEAN EGINA,Maison Burugorrienia, St Etienne de Baigorry, 64430",
                "MEASURE": -999999
            },
            "geometry": {
                "type": "Point",
                "coordinates": [
                    -1.3397823,
                    43.1795577
                ]
            }
        },
        {
            "type": "Feature",
            "properties": {
                "NAME": "SOFIANE CANADA",
                "Category": "INTERNATIONAL",
                "Address": "SOFIANE CANADA,4456 Rue Wellington, Verdun, Quebec, H4G1W5",
                "MEASURE": -999999
            },
            "geometry": {
                "type": "Point",
                "coordinates": [
                    -73.5669414,
                    45.459510400000013
                ]
            }
        },
        {
            "type": "Feature",
            "properties": {
                "NAME": "BEAUTYCOM 75 PARIS",
                "Category": "FRENCH",
                "Address": "BEAUTYCOM 75 PARIS,10 Rue du Faubourg Montmartre, Paris, 75009",
                "MEASURE": -999999
            },
            "geometry": {
                "type": "Point",
                "coordinates": [
                    2.3430467,
                    48.8734079
                ]
            }
        },
        {
            "type": "Feature",
            "properties": {
                "NAME": "BREBION JULIE 62 HENIN BEAUMONT",
                "Category": "FRENCH",
                "Address": "BREBION JULIE 62 HENIN BEAUMONT,114 Boulevard Gabriel Péri, Hénin-Beaumont, 62110",
                "MEASURE": -999999
            },
            "geometry": {
                "type": "Point",
                "coordinates": [
                    2.9447056,
                    50.417757599999987
                ]
            }
        },
        {
            "type": "Feature",
            "properties": {
                "NAME": "PASSION BEAUTE 97 LE PORT",
                "Category": "INTERNATIONAL",
                "Address": "PASSION BEAUTE 97 LE PORT,36 Rue René Michel, Le Port, 97420",
                "MEASURE": -999999
            },
            "geometry": {
                "type": "Point",
                "coordinates": [
                    55.2932022,
                    -20.937681
                ]
            }
        },
        {
            "type": "Feature",
            "properties": {
                "NAME": "KUBE 92 MONTROUGE",
                "Category": "FRENCH",
                "Address": "KUBE 92 MONTROUGE,20 Rue Perier, Montrouge, 92120",
                "MEASURE": -999999
            },
            "geometry": {
                "type": "Point",
                "coordinates": [
                    2.3178689,
                    48.8137816
                ]
            }
        },
        {
            "type": "Feature",
            "properties": {
                "NAME": "VICKY MIGNON",
                "Category": "FRENCH",
                "Address": "1 bis Rue de la Roche du Maine, 53200 Loigne, France",
                "MEASURE": -999999
            },
            "geometry": {
                "type": "Point",
                "coordinates": [
                    -0.7475962,
                    47.8728888
                ]
            }
        },
        {
            "type": "Feature",
            "properties": {
                "NAME": "MELLE CHAILLOLLEAU FLORENCE",
                "Category": "FRENCH",
                "Address": "2 Rue des Hauts de Fresnay, 28300 Leves, France",
                "MEASURE": -999999
            },
            "geometry": {
                "type": "Point",
                "coordinates": [
                    1.468136,
                    48.4739012
                ]
            }
        },
        {
            "type": "Feature",
            "properties": {
                "NAME": "LE SALON DE VALERIE",
                "Category": "FRENCH",
                "Address": "LE SALON DE VALERIE,21 Impasse Fontan, Bérat, 31370",
                "MEASURE": -999999
            },
            "geometry": {
                "type": "Point",
                "coordinates": [
                    1.1817,
                    43.381546
                ]
            }
        },
        {
            "type": "Feature",
            "properties": {
                "NAME": "MME ANAIS DOUCET",
                "Category": "FRENCH",
                "Address": "MME ANAIS DOUCET,27 Rue de la Poussinière, Bazoches les Gallerandes, 45480",
                "MEASURE": -999999
            },
            "geometry": {
                "type": "Point",
                "coordinates": [
                    2.0494023,
                    48.1579994
                ]
            }
        },
        {
            "type": "Feature",
            "properties": {
                "NAME": "MEDIBLOUX SPRL 5030 GEMBLOUX",
                "Category": "INTERNATIONAL",
                "Address": "MEDIBLOUX SPRL 5030 GEMBLOUX,301 Chaussée de Namur, Gembloux, 5030",
                "MEASURE": -999999
            },
            "geometry": {
                "type": "Point",
                "coordinates": [
                    4.7278049,
                    50.5414267
                ]
            }
        },
        {
            "type": "Feature",
            "properties": {
                "NAME": "BUGEAUD CHARLINE 06 ANTIBES",
                "Category": "FRENCH",
                "Address": "BUGEAUD CHARLINE 06 ANTIBES,6 Rue Saint Marguerite, Antibes, 06160",
                "MEASURE": -999999
            },
            "geometry": {
                "type": "Point",
                "coordinates": [
                    7.1255079,
                    43.5809942
                ]
            }
        },
        {
            "type": "Feature",
            "properties": {
                "NAME": "ASSOUMA ABDALLAH AREF",
                "Category": "INTERNATIONAL",
                "Address": "ASSOUMA ABDALLAH AREF, Missbenedj, Djibouti, Djibouti",
                "MEASURE": -999999
            },
            "geometry": {
                "type": "Point",
                "coordinates": [
                    43.148222,
                    11.5975014
                ]
            }
        },
        {
            "type": "Feature",
            "properties": {
                "NAME": "GRAINS DE BEAUTE 02 CHAUNY",
                "Category": "FRENCH",
                "Address": "GRAINS DE BEAUTE 02 CHAUNY,15 Place du Marché Couvé, Chauny, 02300",
                "MEASURE": -999999
            },
            "geometry": {
                "type": "Point",
                "coordinates": [
                    3.2193667,
                    49.6153303
                ]
            }
        },
        {
            "type": "Feature",
            "properties": {
                "NAME": "CAPSULE 61",
                "Category": "FRENCH",
                "Address": "CAPSULE 61,17 Place Henri IV, Argentan, 61200",
                "MEASURE": -999999
            },
            "geometry": {
                "type": "Point",
                "coordinates": [
                    -0.0207117,
                    48.744368400000013
                ]
            }
        },
        {
            "type": "Feature",
            "properties": {
                "NAME": "AINSI SOIT ZEN",
                "Category": "FRENCH",
                "Address": "AINSI SOIT ZEN,1 Rue Baude, Le Hérie la Vieville, 02120",
                "MEASURE": -999999
            },
            "geometry": {
                "type": "Point",
                "coordinates": [
                    3.6473308,
                    49.8218137
                ]
            }
        },
        {
            "type": "Feature",
            "properties": {
                "NAME": "VERTU ET BIEN ETRE AU NATUREL",
                "Category": "FRENCH",
                "Address": "VERTU ET BIEN ETRE AU NATUREL,5 bis Rue du Colonel Mioche, Billom, 63160",
                "MEASURE": -999999
            },
            "geometry": {
                "type": "Point",
                "coordinates": [
                    3.3405071,
                    45.7227064
                ]
            }
        },
        {
            "type": "Feature",
            "properties": {
                "NAME": "EXAGONE DIFFUSION",
                "Category": "FRENCH",
                "Address": "EXAGONE DIFFUSION,Chemin de l’Abreuvoir, Boran sur Oise, 60280",
                "MEASURE": -999999
            },
            "geometry": {
                "type": "Point",
                "coordinates": [
                    2.3616108,
                    49.1629891
                ]
            }
        },
        {
            "type": "Feature",
            "properties": {
                "NAME": "BELLE ET REBELLE",
                "Category": "FRENCH",
                "Address": "BELLE ET REBELLE,30 Allée du Pré Mallard, Chanteloup en Brie, 77600",
                "MEASURE": -999999
            },
            "geometry": {
                "type": "Point",
                "coordinates": [
                    2.7359522,
                    48.8615471
                ]
            }
        },
        {
            "type": "Feature",
            "properties": {
                "NAME": "INSTANT DE DETENTE",
                "Category": "FRENCH",
                "Address": "INSTANT DE DETENTE,38 Place de l’Hôtel de Ville, Libercourt, 62820",
                "MEASURE": -999999
            },
            "geometry": {
                "type": "Point",
                "coordinates": [
                    3.0106472,
                    50.4796501
                ]
            }
        },
        {
            "type": "Feature",
            "properties": {
                "NAME": "PHARMACIE STE THERESE",
                "Category": "INTERNATIONAL",
                "Address": "PHARMACIE STE THERESE,30 Rue Karl Marx, La Possession, 97419",
                "MEASURE": -999999
            },
            "geometry": {
                "type": "Point",
                "coordinates": [
                    55.3393134,
                    -20.9546719
                ]
            }
        },
        {
            "type": "Feature",
            "properties": {
                "NAME": "LRCA LT BEAUTE 69",
                "Category": "FRENCH",
                "Address": "LRCA LT BEAUTE 69,336 Rue de la Fée des Eaux, Vernaison, 69390",
                "MEASURE": -999999
            },
            "geometry": {
                "type": "Point",
                "coordinates": [
                    4.7980157,
                    45.6521763
                ]
            }
        },
        {
            "type": "Feature",
            "properties": {
                "NAME": "MELODIE PARFUM SAS",
                "Category": "FRENCH",
                "Address": "MELODIE PARFUM SAS,90 Chemin du Trièves, Bizonnes, 38690",
                "MEASURE": -999999
            },
            "geometry": {
                "type": "Point",
                "coordinates": [
                    5.3759691,
                    45.4540218
                ]
            }
        },
        {
            "type": "Feature",
            "properties": {
                "NAME": "H'AR-I SAS",
                "Category": "FRENCH",
                "Address": "H'AR-I SAS,20 Route de Courchamp, Rupereux, 77560",
                "MEASURE": -999999
            },
            "geometry": {
                "type": "Point",
                "coordinates": [
                    3.3301498,
                    48.635751799999987
                ]
            }
        },
        {
            "type": "Feature",
            "properties": {
                "NAME": "GOUVEIA - REVEL JUSTINE",
                "Category": "FRENCH",
                "Address": "GOUVEIA - REVEL JUSTINE,1 Rue Balore, Alès, 30100",
                "MEASURE": -999999
            },
            "geometry": {
                "type": "Point",
                "coordinates": [
                    4.0782317,
                    44.1213127
                ]
            }
        },
        {
            "type": "Feature",
            "properties": {
                "NAME": "DIVERS KB DISTRIBUTEUR FRANCE",
                "Category": "FRENCH",
                "Address": "DIVERS KB DISTRIBUTEUR FRANCE,331 Rue de la Rotonde, Riorges, 42153",
                "MEASURE": -999999
            },
            "geometry": {
                "type": "Point",
                "coordinates": [
                    4.0472388,
                    46.054283
                ]
            }
        },
        {
            "type": "Feature",
            "properties": {
                "NAME": "MINIS POTELÉS",
                "Category": "FRENCH",
                "Address": "MINIS POTELÉS,131 Impasse des Pyrénées, Villeneuve de Marsan, 40190",
                "MEASURE": -999999
            },
            "geometry": {
                "type": "Point",
                "coordinates": [
                    -0.3043482,
                    43.8919602
                ]
            }
        },
        {
            "type": "Feature",
            "properties": {
                "NAME": "MYL ET UNE DOUCEUR",
                "Category": "FRENCH",
                "Address": "MYL ET UNE DOUCEUR,9 Allée des Roses, Tigery, 91250",
                "MEASURE": -999999
            },
            "geometry": {
                "type": "Point",
                "coordinates": [
                    2.5395595,
                    48.6413342
                ]
            }
        },
        {
            "type": "Feature",
            "properties": {
                "NAME": "DOUCE EMOTION",
                "Category": "FRENCH",
                "Address": "12 bis Boulevard Francois Mothre, 10260 Saint-Parres-les-Vaudes, France",
                "MEASURE": -999999
            },
            "geometry": {
                "type": "Point",
                "coordinates": [
                    4.2174299,
                    48.1705869
                ]
            }
        },
        {
            "type": "Feature",
            "properties": {
                "NAME": "BEKTAS",
                "Category": "FRENCH",
                "Address": "BEKTAS,14 Rue de l'Essartery, Roche la Moliere, 42230",
                "MEASURE": -999999
            },
            "geometry": {
                "type": "Point",
                "coordinates": [
                    4.3355144,
                    45.4330367
                ]
            }
        },
        {
            "type": "Feature",
            "properties": {
                "NAME": "AYAJEN BOUTIQUE",
                "Category": "FRENCH",
                "Address": "AYAJEN BOUTIQUE,8 Rue Henri Rol Tanguy, Grigny, 91350",
                "MEASURE": -999999
            },
            "geometry": {
                "type": "Point",
                "coordinates": [
                    2.3873475,
                    48.653464
                ]
            }
        },
        {
            "type": "Feature",
            "properties": {
                "NAME": "LE NENUPHAR BLANC",
                "Category": "FRENCH",
                "Address": "LE NENUPHAR BLANC,4 Rue de Loustalot Impasse Barreau, Gradignan, 33170",
                "MEASURE": -999999
            },
            "geometry": {
                "type": "Point",
                "coordinates": [
                    -0.6146683,
                    44.7733861
                ]
            }
        },
        {
            "type": "Feature",
            "properties": {
                "NAME": "ESSENTI'HEL BEAUTE",
                "Category": "FRENCH",
                "Address": "ESSENTI'HEL BEAUTE,360 Rue des Peupliers, Ste Marie Kerque, 62370",
                "MEASURE": -999999
            },
            "geometry": {
                "type": "Point",
                "coordinates": [
                    2.1371591,
                    50.9030579
                ]
            }
        },
        {
            "type": "Feature",
            "properties": {
                "NAME": "LANDRIEAU CANZANI",
                "Category": "FRENCH",
                "Address": "LANDRIEAU CANZANI,13 Chemin du Luc, Carrere, 64160",
                "MEASURE": -999999
            },
            "geometry": {
                "type": "Point",
                "coordinates": [
                    -0.2683613,
                    43.4628924
                ]
            }
        },
        {
            "type": "Feature",
            "properties": {
                "NAME": "MA FLORITHERAPIE",
                "Category": "FRENCH",
                "Address": "MA FLORITHERAPIE,375 Chemin du Collet Long, La Crau, 83260",
                "MEASURE": -999999
            },
            "geometry": {
                "type": "Point",
                "coordinates": [
                    6.085035,
                    43.1550699
                ]
            }
        },
        {
            "type": "Feature",
            "properties": {
                "NAME": "BY KELLY BEAUTE",
                "Category": "FRENCH",
                "Address": "BY KELLY BEAUTE,49 Avenue de la République, Chambray les Tours, 37170",
                "MEASURE": -999999
            },
            "geometry": {
                "type": "Point",
                "coordinates": [
                    0.769855,
                    47.352789
                ]
            }
        },
        {
            "type": "Feature",
            "properties": {
                "NAME": "MARKATO HK LIMITED",
                "Category": "INTERNATIONAL",
                "Address": "MARKATO HK LIMITED,20F Metro South 39 Wong Chuk, Hong Kong, HK",
                "MEASURE": -999999
            },
            "geometry": {
                "type": "Point",
                "coordinates": [
                    114.1663565,
                    22.2488125
                ]
            }
        },
        {
            "type": "Feature",
            "properties": {
                "NAME": "L'ILE DE BEAUTE",
                "Category": "FRENCH",
                "Address": "L'ILE DE BEAUTE,190 Avenue de Cazouls, Maraussan, 34370",
                "MEASURE": -999999
            },
            "geometry": {
                "type": "Point",
                "coordinates": [
                    3.154811,
                    43.3682962
                ]
            }
        },
        {
            "type": "Feature",
            "properties": {
                "NAME": "ANKORSTORE SAS UE",
                "Category": "FRENCH",
                "Address": "ANKORSTORE SAS UE,101 Rue de Sèvres, Paris, 75006",
                "MEASURE": -999999
            },
            "geometry": {
                "type": "Point",
                "coordinates": [
                    2.3298335,
                    48.8723646
                ]
            }
        },
        {
            "type": "Feature",
            "properties": {
                "NAME": "ANKORSTORE SAS EXP",
                "Category": "FRENCH",
                "Address": "ANKORSTORE SAS EXP,101 Rue de Sèvres, Paris, 75006",
                "MEASURE": -999999
            },
            "geometry": {
                "type": "Point",
                "coordinates": [
                    2.3298335,
                    48.8723646
                ]
            }
        },
        {
            "type": "Feature",
            "properties": {
                "NAME": "FAIRE WHOLESALE B.V GRAVENHAGE UE",
                "Category": "INTERNATIONAL",
                "Address": "FAIRE WHOLESALE B.V GRAVENHAGE UE,B.V Wilhelmina van Pruisenweg 35, S-Gravenhage, 2539",
                "MEASURE": -999999
            },
            "geometry": {
                "type": "Point",
                "coordinates": [
                    4.3407928,
                    52.0794586
                ]
            }
        },
        {
            "type": "Feature",
            "properties": {
                "NAME": "FAIRE WHOLESALE B.V GRAVENHAGE EX",
                "Category": "INTERNATIONAL",
                "Address": "FAIRE WHOLESALE B.V GRAVENHAGE EX,B.V Wilhelmina van Pruisenweg 35, S-Gravenhage, 2539",
                "MEASURE": -999999
            },
            "geometry": {
                "type": "Point",
                "coordinates": [
                    4.3407928,
                    52.0794586
                ]
            }
        },
        {
            "type": "Feature",
            "properties": {
                "NAME": "L'ESCALE BEAUTE",
                "Category": "FRENCH",
                "Address": "L'ESCALE BEAUTE,107 Avenue de la République, Biars sur Cère, 46130",
                "MEASURE": -999999
            },
            "geometry": {
                "type": "Point",
                "coordinates": [
                    1.8420356,
                    44.921134
                ]
            }
        },
        {
            "type": "Feature",
            "properties": {
                "NAME": "VOYAGE DES SENS",
                "Category": "FRENCH",
                "Address": "VOYAGE DES SENS,15 Avenue Jean Jaurès, St Juery, 81160",
                "MEASURE": -999999
            },
            "geometry": {
                "type": "Point",
                "coordinates": [
                    2.2094588,
                    43.9483213
                ]
            }
        },
        {
            "type": "Feature",
            "properties": {
                "NAME": "FAIRE WHOLESALE BV GRAVENHAGE",
                "Category": "INTERNATIONAL",
                "Address": "FAIRE WHOLESALE BV GRAVENHAGE,B.V Wilhelmina van Pruisenweg 35, S-Gravenhage, 2539",
                "MEASURE": -999999
            },
            "geometry": {
                "type": "Point",
                "coordinates": [
                    4.3407928,
                    52.0794586
                ]
            }
        },
        {
            "type": "Feature",
            "properties": {
                "NAME": "HARMONIE NATURELLE",
                "Category": "FRENCH",
                "Address": "HARMONIE NATURELLE,1485 Chemin Saint Claude Bâtiment K, Antibes, 06600",
                "MEASURE": -999999
            },
            "geometry": {
                "type": "Point",
                "coordinates": [
                    7.1005752,
                    43.5993257
                ]
            }
        },
        {
            "type": "Feature",
            "properties": {
                "NAME": "SAS PEPITES LODGES ET SPAS",
                "Category": "FRENCH",
                "Address": "SAS PEPITES LODGES ET SPAS,6 Chemin de Bois Rigaud, Premilhat, 03410",
                "MEASURE": -999999
            },
            "geometry": {
                "type": "Point",
                "coordinates": [
                    2.555985,
                    46.334245
                ]
            }
        },
        {
            "type": "Feature",
            "properties": {
                "NAME": "LRZ77 COSMETIQUES",
                "Category": "FRENCH",
                "Address": "LRZ77 COSMETIQUES,16 Rue de la Bernache, Samoreau, 77210",
                "MEASURE": -999999
            },
            "geometry": {
                "type": "Point",
                "coordinates": [
                    2.7253632,
                    48.4105848
                ]
            }
        },
        {
            "type": "Feature",
            "properties": {
                "NAME": "DOUCE BIOTE",
                "Category": "FRENCH",
                "Address": "DOUCE BIOTE,493 Rue Paul Descamps, Bruay la Buissière, 62700",
                "MEASURE": -999999
            },
            "geometry": {
                "type": "Point",
                "coordinates": [
                    2.5623343,
                    50.4814756
                ]
            }
        },
        {
            "type": "Feature",
            "properties": {
                "NAME": "NABUCET ELODIE",
                "Category": "FRENCH",
                "Address": "NABUCET ELODIE,8 Grière, Prinquiau, 44260",
                "MEASURE": -999999
            },
            "geometry": {
                "type": "Point",
                "coordinates": [
                    -2.0110296,
                    47.3632286
                ]
            }
        },
        {
            "type": "Feature",
            "properties": {
                "NAME": "SANDRINE POUNIT",
                "Category": "FRENCH",
                "Address": "SANDRINE POUNIT,2 Route de la Fontaine Rizolles Bas, Auzon, 43390",
                "MEASURE": -999999
            },
            "geometry": {
                "type": "Point",
                "coordinates": [
                    3.3798135,
                    45.386897399999988
                ]
            }
        },
        {
            "type": "Feature",
            "properties": {
                "NAME": "SÉRÉLYA-STORE",
                "Category": "FRENCH",
                "Address": "SÉRÉLYA-STORE,13 Rue de la Fontaine de Chalet, Massiac, 15500",
                "MEASURE": -999999
            },
            "geometry": {
                "type": "Point",
                "coordinates": [
                    3.20254,
                    45.2746179
                ]
            }
        },
        {
            "type": "Feature",
            "properties": {
                "NAME": "VINCENT JONATHAN",
                "Category": "FRENCH",
                "Address": "VINCENT JONATHAN,5 UE Chabot d'Allier, Montluçon, 03100",
                "MEASURE": -999999
            },
            "geometry": {
                "type": "Point",
                "coordinates": [
                    2.5972556,
                    46.3451775
                ]
            }
        },
        {
            "type": "Feature",
            "properties": {
                "NAME": "CREACIONES PRECIOSAS",
                "Category": "FRENCH",
                "Address": "CREACIONES PRECIOSAS,18 Rue de l'Aiguille, Bages, 11100",
                "MEASURE": -999999
            },
            "geometry": {
                "type": "Point",
                "coordinates": [
                    2.9889,
                    43.1240872
                ]
            }
        },
        {
            "type": "Feature",
            "properties": {
                "NAME": "SAS AUBIMIOCA",
                "Category": "FRENCH",
                "Address": "SAS AUBIMIOCA,90 Impasse des Meuliers, Vic le Comte, 63270",
                "MEASURE": -999999
            },
            "geometry": {
                "type": "Point",
                "coordinates": [
                    3.2296725,
                    45.6452705
                ]
            }
        },
        {
            "type": "Feature",
            "properties": {
                "NAME": "L'HARMONIE DES SENS",
                "Category": "FRENCH",
                "Address": "L'HARMONIE DES SENS,18 Route de la Sauvetat du Dropt, Eymet, 24500",
                "MEASURE": -999999
            },
            "geometry": {
                "type": "Point",
                "coordinates": [
                    0.3968471,
                    44.666702099999988
                ]
            }
        },
        {
            "type": "Feature",
            "properties": {
                "NAME": "PARENTHESE PARFUMEE",
                "Category": "FRENCH",
                "Address": "PARENTHESE PARFUMEE,13 Lotissement Mane Lann Vraz, Landevant, 56690",
                "MEASURE": -999999
            },
            "geometry": {
                "type": "Point",
                "coordinates": [
                    -3.1112662,
                    47.7591175
                ]
            }
        },
        {
            "type": "Feature",
            "properties": {
                "NAME": "BULLES DE SENTEUR",
                "Category": "FRENCH",
                "Address": "BULLES DE SENTEUR,3 Lieu-dit Le Clos des Troènes, Orcet, 63670",
                "MEASURE": -999999
            },
            "geometry": {
                "type": "Point",
                "coordinates": [
                    3.175031,
                    45.7071382
                ]
            }
        },
        {
            "type": "Feature",
            "properties": {
                "NAME": "AXEL FORNASIER",
                "Category": "FRENCH",
                "Address": "AXEL FORNASIER,688 Avenue Jean Moulin, Velaux, 13880",
                "MEASURE": -999999
            },
            "geometry": {
                "type": "Point",
                "coordinates": [
                    5.2454376,
                    43.5258666
                ]
            }
        },
        {
            "type": "Feature",
            "properties": {
                "NAME": "L'INSTITUT DE JOËLLE",
                "Category": "FRENCH",
                "Address": "L'INSTITUT DE JOËLLE,36 Rue de Custines, Malleloy, 54670",
                "MEASURE": -999999
            },
            "geometry": {
                "type": "Point",
                "coordinates": [
                    6.1591584,
                    48.794551
                ]
            }
        },
        {
            "type": "Feature",
            "properties": {
                "NAME": "KINEXYA",
                "Category": "FRENCH",
                "Address": "Kinexya, Sylvains‑les‑Moulins, 27240, France",
                "MEASURE": -999999
            },
            "geometry": {
                "type": "Point",
                "coordinates": [
                    1.0970664,
                    48.8760579
                ]
            }
        },
        {
            "type": "Feature",
            "properties": {
                "NAME": "LA PART DU COLIBRI",
                "Category": "FRENCH",
                "Address": "La Part du Colibri, Cazal Viel, 34460 Cessenon‑sur‑Orb, France",
                "MEASURE": -999999
            },
            "geometry": {
                "type": "Point",
                "coordinates": [
                    3.094112,
                    43.43015
                ]
            }
        },
        {
            "type": "Feature",
            "properties": {
                "NAME": "DOUCEUR ET SOINS",
                "Category": "FRENCH",
                "Address": "DOUCEUR ET SOINS,22 Rue de Forges, Balleroy sur Drôme, 14490",
                "MEASURE": -999999
            },
            "geometry": {
                "type": "Point",
                "coordinates": [
                    -0.8396962,
                    49.1812643
                ]
            }
        },
        {
            "type": "Feature",
            "properties": {
                "NAME": "EL HADDOUCHI FAOUZI",
                "Category": "FRENCH",
                "Address": "EL HADDOUCHI FAOUZI,1 Avenue Montesquieu BP 10004, Orléans Cedex 2, 45060",
                "MEASURE": -999999
            },
            "geometry": {
                "type": "Point",
                "coordinates": [
                    1.9085203,
                    47.9032335
                ]
            }
        },
        {
            "type": "Feature",
            "properties": {
                "NAME": "SAS RESPIRADOM",
                "Category": "FRENCH",
                "Address": "SAS RESPIRADOM,9 Place Jacques Brel, Ris Orangis, 91130",
                "MEASURE": -999999
            },
            "geometry": {
                "type": "Point",
                "coordinates": [
                    2.4093506,
                    48.6559953
                ]
            }
        },
        {
            "type": "Feature",
            "properties": {
                "NAME": "SCTI S.A.S.",
                "Category": "INTERNATIONAL",
                "Address": "SCTI S.A.S.,Ornella Rosa Via Montegrappa 4, Ponte San Pietro - Bergamo, 24036",
                "MEASURE": -999999
            },
            "geometry": {
                "type": "Point",
                "coordinates": [
                    9.588009,
                    45.6972561
                ]
            }
        },
        {
            "type": "Feature",
            "properties": {
                "NAME": "AUX TRESORS DE NAIS",
                "Category": "FRENCH",
                "Address": "AUX TRESORS DE NAIS,6 Boulevard Georges Clemenceau, Lorgues, 83510",
                "MEASURE": -999999
            },
            "geometry": {
                "type": "Point",
                "coordinates": [
                    6.3621,
                    43.4930619
                ]
            }
        },
        {
            "type": "Feature",
            "properties": {
                "NAME": "LA SAVONNIÈRE",
                "Category": "FRENCH",
                "Address": "LA SAVONNIÈRE,9 Rue Haute-Vienne, Limoges, 87000",
                "MEASURE": -999999
            },
            "geometry": {
                "type": "Point",
                "coordinates": [
                    1.259923,
                    45.8278969
                ]
            }
        },
        {
            "type": "Feature",
            "properties": {
                "NAME": "L'ATELIER DÉTENTE D'ANNABELLE",
                "Category": "FRENCH",
                "Address": "L'ATELIER DÉTENTE D'ANNABELLE,49 Imp des Hauts de la Chapelle, Manosque, 04100",
                "MEASURE": -999999
            },
            "geometry": {
                "type": "Point",
                "coordinates": [
                    5.7956666,
                    43.829551599999988
                ]
            }
        },
        {
            "type": "Feature",
            "properties": {
                "NAME": "ELODIE BOUILLAUX",
                "Category": "FRENCH",
                "Address": "ELODIE BOUILLAUX,88 Rue Edmonde Charles Roux, Hermanville sur Mer, 14880",
                "MEASURE": -999999
            },
            "geometry": {
                "type": "Point",
                "coordinates": [
                    -0.3199713,
                    49.2855235
                ]
            }
        },
        {
            "type": "Feature",
            "properties": {
                "NAME": "FEE DU BIEN ETRE",
                "Category": "FRENCH",
                "Address": "FEE DU BIEN ETRE,10 Rue Louis Aragon, Salouel, 80480",
                "MEASURE": -999999
            },
            "geometry": {
                "type": "Point",
                "coordinates": [
                    2.2578186,
                    49.870692299999988
                ]
            }
        },
        {
            "type": "Feature",
            "properties": {
                "NAME": "INSTINCTIVE",
                "Category": "FRENCH",
                "Address": "INSTINCTIVE,45 Rue de la Tourberie, Verton, 62180",
                "MEASURE": -999999
            },
            "geometry": {
                "type": "Point",
                "coordinates": [
                    1.6461215,
                    50.3999298
                ]
            }
        },
        {
            "type": "Feature",
            "properties": {
                "NAME": "L'ODEUR DU BONHEUR",
                "Category": "FRENCH",
                "Address": "L'ODEUR DU BONHEUR,5 Chemin de Saint Cirgues, Meilhaud, 63320",
                "MEASURE": -999999
            },
            "geometry": {
                "type": "Point",
                "coordinates": [
                    3.160641,
                    45.547184
                ]
            }
        },
        {
            "type": "Feature",
            "properties": {
                "NAME": "AVEC JOIE",
                "Category": "FRENCH",
                "Address": "AVEC JOIE,73 Rue François Mermet, Tassin la Demi Lune, 69160",
                "MEASURE": -999999
            },
            "geometry": {
                "type": "Point",
                "coordinates": [
                    4.762903,
                    45.758003900000013
                ]
            }
        },
        {
            "type": "Feature",
            "properties": {
                "NAME": "OUSTAU'BIO",
                "Category": "FRENCH",
                "Address": "OUSTAU'BIO,17 Rue St Germain, Navarrenx, 64190",
                "MEASURE": -999999
            },
            "geometry": {
                "type": "Point",
                "coordinates": [
                    -0.7600845,
                    43.3218658
                ]
            }
        },
        {
            "type": "Feature",
            "properties": {
                "NAME": "GEMER GRUPP OU",
                "Category": "INTERNATIONAL",
                "Address": "GEMER GRUPP OÜ, Kadaka tee 3\/3, Tallinn, 10621, Estonia",
                "MEASURE": -999999
            },
            "geometry": {
                "type": "Point",
                "coordinates": [
                    24.6825596,
                    59.4147212
                ]
            }
        },
        {
            "type": "Feature",
            "properties": {
                "NAME": "REV & ZEN 34 SAINT GEORGES D'ORQUES",
                "Category": "FRENCH",
                "Address": "REV & ZEN 34 SAINT GEORGES D'ORQUES,3 Rue des Alicantes, St Georges d'Orques, 34680",
                "MEASURE": -999999
            },
            "geometry": {
                "type": "Point",
                "coordinates": [
                    3.7818356,
                    43.6105622
                ]
            }
        },
        {
            "type": "Feature",
            "properties": {
                "NAME": "AMAZON 45 SARAN",
                "Category": "FRENCH",
                "Address": "AMAZON 45 SARAN,Pole 45, Saran, 45772",
                "MEASURE": -999999
            },
            "geometry": {
                "type": "Point",
                "coordinates": [
                    1.8460173,
                    47.9622599
                ]
            }
        },
        {
            "type": "Feature",
            "properties": {
                "NAME": "INSYSTEM BALTIC OÜ",
                "Category": "INTERNATIONAL",
                "Address": "Lai 2, 79806 Kohila, Estonia",
                "MEASURE": -999999
            },
            "geometry": {
                "type": "Point",
                "coordinates": [
                    24.7366868,
                    59.1791153
                ]
            }
        },
        {
            "type": "Feature",
            "properties": {
                "NAME": "CASINO 76 SAINT VALERY EN CAUX",
                "Category": "FRENCH",
                "Address": "CASINO 76 SAINT VALERY EN CAUX,1 Promenade Jacuqes Couture, St Valery en Caux, 76460",
                "MEASURE": -999999
            },
            "geometry": {
                "type": "Point",
                "coordinates": [
                    0.7164256,
                    49.8698675
                ]
            }
        },
        {
            "type": "Feature",
            "properties": {
                "NAME": "ALCHIDA NATURE S.R.L",
                "Category": "INTERNATIONAL",
                "Address": "ALCHIDA NATURE S.R.L,Str. Aleea Barajul Iezeru Nr.6A, Bucarest, Sect.3",
                "MEASURE": -999999
            },
            "geometry": {
                "type": "Point",
                "coordinates": [
                    26.1704157,
                    44.4324765
                ]
            }
        },
        {
            "type": "Feature",
            "properties": {
                "NAME": "L'INSTANT SOIN",
                "Category": "FRENCH",
                "Address": "L'INSTANT SOIN,44 Rue Célestin Freppaz, Seez, 73700",
                "MEASURE": -999999
            },
            "geometry": {
                "type": "Point",
                "coordinates": [
                    6.7990733,
                    45.622988
                ]
            }
        },
        {
            "type": "Feature",
            "properties": {
                "NAME": "UCC FACILITY 1319CT ALMERE",
                "Category": "INTERNATIONAL",
                "Address": "UCC FACILITY 1319CT ALMERE,Ploeganker 25, Almere, 1319CT",
                "MEASURE": -999999
            },
            "geometry": {
                "type": "Point",
                "coordinates": [
                    5.2168528,
                    52.3757139
                ]
            }
        },
        {
            "type": "Feature",
            "properties": {
                "NAME": "BIO NATURE BRANDS, SL",
                "Category": "INTERNATIONAL",
                "Address": "BIO NATURE BRANDS, SL,Avenida Costa Brava 136 Nave 4, Barcelona, 08380",
                "MEASURE": -999999
            },
            "geometry": {
                "type": "Point",
                "coordinates": [
                    2.7410535,
                    41.654324
                ]
            }
        },
        {
            "type": "Feature",
            "properties": {
                "NAME": "TILOU NATURE 30 VILLENEUVE LES AVIGNON",
                "Category": "FRENCH",
                "Address": "TILOU NATURE 30 VILLENEUVE LES AVIGNON,59 Chemin du Montagne, Villeneuve les Avignon, 30400",
                "MEASURE": -999999
            },
            "geometry": {
                "type": "Point",
                "coordinates": [
                    4.772305,
                    43.9761843
                ]
            }
        },
        {
            "type": "Feature",
            "properties": {
                "NAME": "MIRAZ TRADING OY 33 TAMPERE",
                "Category": "INTERNATIONAL",
                "Address": "MIRAZ TRADING OY 33 TAMPERE,Ahertajankatu 19, Tampere, 33720",
                "MEASURE": -999999
            },
            "geometry": {
                "type": "Point",
                "coordinates": [
                    23.8745205,
                    61.4594744
                ]
            }
        },
        {
            "type": "Feature",
            "properties": {
                "NAME": "MATIC STREHAR S.P.",
                "Category": "INTERNATIONAL",
                "Address": "MATIC STREHAR S.P.,Ljubljanska cesta 3, Dob, 1233",
                "MEASURE": -999999
            },
            "geometry": {
                "type": "Point",
                "coordinates": [
                    14.6252844,
                    46.153227
                ]
            }
        },
        {
            "type": "Feature",
            "properties": {
                "NAME": "PRIVATE ENTERPRISE GOLDEN-PHARM",
                "Category": "INTERNATIONAL",
                "Address": "PRIVATE ENTERPRISE GOLDEN-PHARM,1 Mahnitohorska Str., Kyiv, 02094",
                "MEASURE": -999999
            },
            "geometry": {
                "type": "Point",
                "coordinates": [
                    30.6450047,
                    50.4547744
                ]
            }
        },
        {
            "type": "Feature",
            "properties": {
                "NAME": "ORGANICO WORLD DOR NATURAL FOOD AND PRODUCTS",
                "Category": "INTERNATIONAL",
                "Address": "ORGANICO WORLD DOR NATURAL FOOD AND PRODUCTS, Shop 223, Musalla, Dubai, United Arab Emirates",
                "MEASURE": -999999
            },
            "geometry": {
                "type": "Point",
                "coordinates": [
                    55.2422642,
                    25.171277
                ]
            }
        },
        {
            "type": "Feature",
            "properties": {
                "NAME": "FATOUMATA KABA 92",
                "Category": "FRENCH",
                "Address": "FATOUMATA KABA 92,Suresnes France",
                "MEASURE": -999999
            },
            "geometry": {
                "type": "Point",
                "coordinates": [
                    2.21815,
                    48.8704428
                ]
            }
        },
        {
            "type": "Feature",
            "properties": {
                "NAME": "MYRHA-TEX 75 PARIS",
                "Category": "FRENCH",
                "Address": "MYRHA-TEX 75 PARIS,73 Rue Myrha, Paris, 75018",
                "MEASURE": -999999
            },
            "geometry": {
                "type": "Point",
                "coordinates": [
                    2.3499422,
                    48.886542
                ]
            }
        },
        {
            "type": "Feature",
            "properties": {
                "NAME": "BITON SRO DZURKO VLADIMIR",
                "Category": "INTERNATIONAL",
                "Address": "Okružná 1297\/54, 071 01 Michalovce, Slovakia",
                "MEASURE": -999999
            },
            "geometry": {
                "type": "Point",
                "coordinates": [
                    21.9132606,
                    48.7465
                ]
            }
        },
        {
            "type": "Feature",
            "properties": {
                "NAME": "JORDKLOK AKTIEBOLAG",
                "Category": "INTERNATIONAL",
                "Address": "JORDKLOK AKTIEBOLAG,Dammliden 5, Österhaninge, 13769",
                "MEASURE": -999999
            },
            "geometry": {
                "type": "Point",
                "coordinates": [
                    18.1668749,
                    59.1528329
                ]
            }
        },
        {
            "type": "Feature",
            "properties": {
                "NAME": "LAMAZERE GESTION PRIVEE",
                "Category": "FRENCH",
                "Address": "LAMAZERE GESTION PRIVEE,73 Rue Blatin, Clermont-Ferrand, 63000",
                "MEASURE": -999999
            },
            "geometry": {
                "type": "Point",
                "coordinates": [
                    3.0757052,
                    45.7763804
                ]
            }
        },
        {
            "type": "Feature",
            "properties": {
                "NAME": "HOSANNA WIND LIMITED",
                "Category": "INTERNATIONAL",
                "Address": "HOSANNA WIND LIMITED, Block D Hang Cheong Factory, Hong Kong, , Hong Kong",
                "MEASURE": -999999
            },
            "geometry": {
                "type": "Point",
                "coordinates": [
                    114.1500094,
                    22.3402479
                ]
            }
        },
        {
            "type": "Feature",
            "properties": {
                "NAME": "ARMC INC 42 BALBIGNY",
                "Category": "FRENCH",
                "Address": "ARMC INC 42 BALBIGNY,722 Chemin du Bernand, Balbigny, 42150",
                "MEASURE": -999999
            },
            "geometry": {
                "type": "Point",
                "coordinates": [
                    4.183106,
                    45.8191149
                ]
            }
        },
        {
            "type": "Feature",
            "properties": {
                "NAME": "INSTITUT DE BEAUTE BELLA E SERENA 83",
                "Category": "FRENCH",
                "Address": "INSTITUT DE BEAUTE BELLA E SERENA 83,21 Avenue de Brignoles, Rougiers, 83170",
                "MEASURE": -999999
            },
            "geometry": {
                "type": "Point",
                "coordinates": [
                    5.8498114,
                    43.3923992
                ]
            }
        },
        {
            "type": "Feature",
            "properties": {
                "NAME": "LES CAPRICIEUSES 66",
                "Category": "FRENCH",
                "Address": "LES CAPRICIEUSES 66,3 Rue Maréchal Foch, St Hippolyte, 66510",
                "MEASURE": -999999
            },
            "geometry": {
                "type": "Point",
                "coordinates": [
                    2.9881765,
                    42.7742162
                ]
            }
        },
        {
            "type": "Feature",
            "properties": {
                "NAME": "COSMOS FACILITY SERVICES",
                "Category": "INTERNATIONAL",
                "Address": "COSMOS FACILITY SERVICES,Wethouder Steinmetzstraat 57, Amsterdam, 1107BW",
                "MEASURE": -999999
            },
            "geometry": {
                "type": "Point",
                "coordinates": [
                    4.9949718,
                    52.2949381
                ]
            }
        },
        {
            "type": "Feature",
            "properties": {
                "NAME": "DAM JAH BAMBIA CO",
                "Category": "INTERNATIONAL",
                "Address": "DAM JAH BAMBIA CO, 10 Rue Nelson Mandela, Gambie, 4290, Gambia",
                "MEASURE": -999999
            },
            "geometry": {
                "type": "Point",
                "coordinates": [
                    -16.6665494,
                    13.4528399
                ]
            }
        },
        {
            "type": "Feature",
            "properties": {
                "NAME": "ETS BIOMI COSMETICS",
                "Category": "INTERNATIONAL",
                "Address": "ETS BIOMI COSMETICS,237 Montée Aurore, Yaoundé, 237",
                "MEASURE": -999999
            },
            "geometry": {
                "type": "Point",
                "coordinates": [
                    11.5480229,
                    3.8561952
                ]
            }
        },
        {
            "type": "Feature",
            "properties": {
                "NAME": "ANASTASIIA DROZDOVAS",
                "Category": "INTERNATIONAL",
                "Address": "ANASTASIIA DROZDOVAS,Minsko pl. 33A, Vilnius, 02121",
                "MEASURE": -999999
            },
            "geometry": {
                "type": "Point",
                "coordinates": [
                    22.1746304,
                    53.1504382
                ]
            }
        },
        {
            "type": "Feature",
            "properties": {
                "NAME": "YOVEE GRZEGORZ MOKOBODZKI",
                "Category": "INTERNATIONAL",
                "Address": "YOVEE GRZEGORZ MOKOBODZKI,Ul. Bema 10, Jozefów, 05-420",
                "MEASURE": -999999
            },
            "geometry": {
                "type": "Point",
                "coordinates": [
                    21.2129178,
                    52.130123299999987
                ]
            }
        },
        {
            "type": "Feature",
            "properties": {
                "NAME": "SI KO TRADING",
                "Category": "INTERNATIONAL",
                "Address": "SIKO Trading Ltd., Europe",
                "MEASURE": -999999
            },
            "geometry": {
                "type": "Point",
                "coordinates": [
                    8.8245256,
                    50.4045869
                ]
            }
        },
        {
            "type": "Feature",
            "properties": {
                "NAME": "INNOVA+SRLS",
                "Category": "INTERNATIONAL",
                "Address": "INNOVA+SRLS,Via della Pedica 44A, Rome, 00046",
                "MEASURE": -999999
            },
            "geometry": {
                "type": "Point",
                "coordinates": [
                    12.6861307,
                    41.7853822
                ]
            }
        },
        {
            "type": "Feature",
            "properties": {
                "NAME": "MAI HING INDUSTRIAL BUILDING",
                "Category": "INTERNATIONAL",
                "Address": "MAI HING INDUSTRIAL BUILDING,Flat \/ Rm A7 Blk A 5\/F, Hong Kong, HK",
                "MEASURE": -999999
            },
            "geometry": {
                "type": "Point",
                "coordinates": [
                    114.225174,
                    22.3088856
                ]
            }
        },
        {
            "type": "Feature",
            "properties": {
                "NAME": "DREAM BIGGER VENTURES GMBH",
                "Category": "INTERNATIONAL",
                "Address": "DREAM BIGGER VENTURES GMBH,Handpans & Herbs, Lienz, 9900",
                "MEASURE": -999999
            },
            "geometry": {
                "type": "Point",
                "coordinates": [
                    12.7678047,
                    46.8297001
                ]
            }
        },
        {
            "type": "Feature",
            "properties": {
                "NAME": "CENTRIUM TRADING LIMITED",
                "Category": "INTERNATIONAL",
                "Address": "CENTRIUM TRADING LIMITED, Rua dos Pescadores 166, Macau, , Macau",
                "MEASURE": -999999
            },
            "geometry": {
                "type": "Point",
                "coordinates": [
                    113.5496948,
                    22.1900675
                ]
            }
        },
        {
            "type": "Feature",
            "properties": {
                "NAME": "CORBIN YOANN",
                "Category": "INTERNATIONAL",
                "Address": "CORBIN YOANN,Avenida de la Marina 6115, Mazatlan, 82103",
                "MEASURE": -999999
            },
            "geometry": {
                "type": "Point",
                "coordinates": [
                    -106.446665,
                    23.2771084
                ]
            }
        },
        {
            "type": "Feature",
            "properties": {
                "NAME": "SAS KF COSMETIC",
                "Category": "FRENCH",
                "Address": "SAS KF COSMETIC,70 Rue de Darcin, Cusset, 03300",
                "MEASURE": -999999
            },
            "geometry": {
                "type": "Point",
                "coordinates": [
                    3.4337732,
                    46.1362459
                ]
            }
        },
        {
            "type": "Feature",
            "properties": {
                "NAME": "OKOSTJERNA AS",
                "Category": "INTERNATIONAL",
                "Address": "OKOSTJERNA AS,Gauterodveien 6, Norway, 3150",
                "MEASURE": -999999
            },
            "geometry": {
                "type": "Point",
                "coordinates": [
                    10.4517027,
                    59.275506699999987
                ]
            }
        },
        {
            "type": "Feature",
            "properties": {
                "NAME": "AME LLU OU",
                "Category": "INTERNATIONAL",
                "Address": "AME LLU OU, Ruutli 5LA, Parnu Linn, 80011, Estonia",
                "MEASURE": -999999
            },
            "geometry": {
                "type": "Point",
                "coordinates": [
                    24.5059376,
                    58.3847542
                ]
            }
        },
        {
            "type": "Feature",
            "properties": {
                "NAME": "EUROPE COSMETIQUE",
                "Category": "FRENCH",
                "Address": "EUROPE COSMETIQUE,13 Rue du Maréchal Foch, Strasbourg, 67000",
                "MEASURE": -999999
            },
            "geometry": {
                "type": "Point",
                "coordinates": [
                    7.7486985,
                    48.5896513
                ]
            }
        },
        {
            "type": "Feature",
            "properties": {
                "NAME": "GOLDEN MANGO",
                "Category": "INTERNATIONAL",
                "Address": "Hollywood Centre, 6th Floor Room 606, Hong Kong",
                "MEASURE": -999999
            },
            "geometry": {
                "type": "Point",
                "coordinates": [
                    114.1482076,
                    22.285523
                ]
            }
        },
        {
            "type": "Feature",
            "properties": {
                "NAME": "MEDIPAC 98",
                "Category": "INTERNATIONAL",
                "Address": "Punaauia, 98718, French Polynesia",
                "MEASURE": -999999
            },
            "geometry": {
                "type": "Point",
                "coordinates": [
                    -149.6123987,
                    -17.5936654
                ]
            }
        },
        {
            "type": "Feature",
            "properties": {
                "NAME": "I Love Puur",
                "Category": "INTERNATIONAL",
                "Address": "I Love Puur,Pays-Bas, Gorinchem",
                "MEASURE": -999999
            },
            "geometry": {
                "type": "Point",
                "coordinates": [
                    4.962207,
                    51.837471
                ]
            }
        },
        {
            "type": "Feature",
            "properties": {
                "NAME": "MADEMOISELLE C",
                "Category": "FRENCH",
                "Address": "Camallera, 17468, Spain",
                "MEASURE": -999999
            },
            "geometry": {
                "type": "Point",
                "coordinates": [
                    2.9628657,
                    42.1220144
                ]
            }
        },
        {
            "type": "Feature",
            "properties": {
                "NAME": "C.K Créations",
                "Category": "INTERNATIONAL",
                "Address": "C.K Créations,5310 Faimes Belgium",
                "MEASURE": -999999
            },
            "geometry": {
                "type": "Point",
                "coordinates": [
                    5.3649915,
                    50.5979045
                ]
            }
        },
        {
            "type": "Feature",
            "properties": {
                "NAME": "Nature cosmétique",
                "Category": "FRENCH",
                "Address": "Nature cosmétique,France, Cucq",
                "MEASURE": -999999
            },
            "geometry": {
                "type": "Point",
                "coordinates": [
                    1.588984,
                    50.4814796
                ]
            }
        },
        {
            "type": "Feature",
            "properties": {
                "NAME": "Caliaé Bien-être et Senteurs",
                "Category": "FRENCH",
                "Address": "Caliaé Bien-être et Senteurs,France, Pierrefeu-du-Var",
                "MEASURE": -999999
            },
            "geometry": {
                "type": "Point",
                "coordinates": [
                    6.0568784,
                    43.4359298
                ]
            }
        },
        {
            "type": "Feature",
            "properties": {
                "NAME": "Charmeur de Serpents",
                "Category": "FRENCH",
                "Address": "76400 Saint-Vigor-dYmonville, France",
                "MEASURE": -999999
            },
            "geometry": {
                "type": "Point",
                "coordinates": [
                    0.360227,
                    49.495267
                ]
            }
        },
        {
            "type": "Feature",
            "properties": {
                "NAME": "SHIKAMARU",
                "Category": "FRENCH",
                "Address": "SHIKAMARU,France, Orsay",
                "MEASURE": -999999
            },
            "geometry": {
                "type": "Point",
                "coordinates": [
                    2.18206,
                    48.69758
                ]
            }
        },
        {
            "type": "Feature",
            "properties": {
                "NAME": "Chrysocollia SRL",
                "Category": "INTERNATIONAL",
                "Address": "Chrysocollia SRL,Belgique, Jambes",
                "MEASURE": -999999
            },
            "geometry": {
                "type": "Point",
                "coordinates": [
                    4.8901525,
                    50.4562335
                ]
            }
        },
        {
            "type": "Feature",
            "properties": {
                "NAME": "L'Aura",
                "Category": "FRENCH",
                "Address": "L'Aura,France, Bouchain",
                "MEASURE": -999999
            },
            "geometry": {
                "type": "Point",
                "coordinates": [
                    3.3202676,
                    50.281346199999987
                ]
            }
        },
        {
            "type": "Feature",
            "properties": {
                "NAME": "ANCESTYLE\/COSMESTORE",
                "Category": "FRENCH",
                "Address": "ANCESTYLE\/COSMESTORE,France, Lyon",
                "MEASURE": -999999
            },
            "geometry": {
                "type": "Point",
                "coordinates": [
                    4.8322254,
                    45.7766856
                ]
            }
        },
        {
            "type": "Feature",
            "properties": {
                "NAME": "KOOMA - Les Epiciers Bio de la Manufacture",
                "Category": "FRENCH",
                "Address": "KOOMA - Les Epiciers Bio de la Manufacture,France, Strasbourg",
                "MEASURE": -999999
            },
            "geometry": {
                "type": "Point",
                "coordinates": [
                    7.7581145,
                    48.5809618
                ]
            }
        },
        {
            "type": "Feature",
            "properties": {
                "NAME": "Biobulle Azur",
                "Category": "FRENCH",
                "Address": "Biobulle Azur,France, Nice",
                "MEASURE": -999999
            },
            "geometry": {
                "type": "Point",
                "coordinates": [
                    7.2896001,
                    43.7040823
                ]
            }
        },
        {
            "type": "Feature",
            "properties": {
                "NAME": "bebe cash",
                "Category": "FRENCH",
                "Address": "bebe cash,France, Biguglia",
                "MEASURE": -999999
            },
            "geometry": {
                "type": "Point",
                "coordinates": [
                    9.4384124,
                    42.6355476
                ]
            }
        },
        {
            "type": "Feature",
            "properties": {
                "NAME": "Thé l'Artiste",
                "Category": "FRENCH",
                "Address": "Thé l'Artiste,France, Maule",
                "MEASURE": -999999
            },
            "geometry": {
                "type": "Point",
                "coordinates": [
                    1.8489603,
                    48.9104201
                ]
            }
        },
        {
            "type": "Feature",
            "properties": {
                "NAME": "Graine de folie",
                "Category": "FRENCH",
                "Address": "Graine de folie,France, Calonne-Ricouart",
                "MEASURE": -999999
            },
            "geometry": {
                "type": "Point",
                "coordinates": [
                    2.4845239,
                    50.486946399999987
                ]
            }
        },
        {
            "type": "Feature",
            "properties": {
                "NAME": "REINE ELIXIRS",
                "Category": "FRENCH",
                "Address": "REINE ELIXIRS,France, Sedan",
                "MEASURE": -999999
            },
            "geometry": {
                "type": "Point",
                "coordinates": [
                    4.9478075,
                    49.7010224
                ]
            }
        },
        {
            "type": "Feature",
            "properties": {
                "NAME": "Institut Grain de Beauté",
                "Category": "FRENCH",
                "Address": "Institut Grain de Beauté,France, Chauny",
                "MEASURE": -999999
            },
            "geometry": {
                "type": "Point",
                "coordinates": [
                    3.2193667,
                    49.6153303
                ]
            }
        },
        {
            "type": "Feature",
            "properties": {
                "NAME": "MAD ORIGINS",
                "Category": "FRENCH",
                "Address": "MAD ORIGINS,France, Istres",
                "MEASURE": -999999
            },
            "geometry": {
                "type": "Point",
                "coordinates": [
                    4.9717423,
                    43.5176903
                ]
            }
        },
        {
            "type": "Feature",
            "properties": {
                "NAME": "NOIA",
                "Category": "FRENCH",
                "Address": "NOIA,France, Tours",
                "MEASURE": -999999
            },
            "geometry": {
                "type": "Point",
                "coordinates": [
                    0.6819709,
                    47.3930639
                ]
            }
        },
        {
            "type": "Feature",
            "properties": {
                "NAME": "ESTHETIQUE BEAUTE DISTRIBUTION",
                "Category": "FRENCH",
                "Address": "ESTHETIQUE BEAUTE DISTRIBUTION,France, Le Blanc",
                "MEASURE": -999999
            },
            "geometry": {
                "type": "Point",
                "coordinates": [
                    1.0631169,
                    46.6327918
                ]
            }
        },
        {
            "type": "Feature",
            "properties": {
                "NAME": "Bulle de rêve",
                "Category": "FRENCH",
                "Address": "Bulle de rêve,France, Houdain",
                "MEASURE": -999999
            },
            "geometry": {
                "type": "Point",
                "coordinates": [
                    2.5653401,
                    50.5227866
                ]
            }
        },
        {
            "type": "Feature",
            "properties": {
                "NAME": "L'échappée Belle",
                "Category": "FRENCH",
                "Address": "L'échappée Belle,La Calmette,France",
                "MEASURE": -999999
            },
            "geometry": {
                "type": "Point",
                "coordinates": [
                    4.2574511,
                    43.9251675
                ]
            }
        },
        {
            "type": "Feature",
            "properties": {
                "NAME": "Francement bon",
                "Category": "FRENCH",
                "Address": "Francement bon,Boncourt,France",
                "MEASURE": -999999
            },
            "geometry": {
                "type": "Point",
                "coordinates": [
                    1.4625518,
                    48.8460449
                ]
            }
        },
        {
            "type": "Feature",
            "properties": {
                "NAME": "La clef des champs",
                "Category": "FRENCH",
                "Address": "La clef des champs,Condé-en-Normandie,France",
                "MEASURE": -999999
            },
            "geometry": {
                "type": "Point",
                "coordinates": [
                    -0.5636181,
                    48.8521975
                ]
            }
        },
        {
            "type": "Feature",
            "properties": {
                "NAME": "Fajne s. r. o.",
                "Category": "INTERNATIONAL",
                "Address": "Fajne s. r. o.,Kosice,Slovaquie",
                "MEASURE": -999999
            },
            "geometry": {
                "type": "Point",
                "coordinates": [
                    21.2586161,
                    48.716738799999987
                ]
            }
        },
        {
            "type": "Feature",
            "properties": {
                "NAME": "Sara natura",
                "Category": "FRENCH",
                "Address": "Sara Natura,68780 Michelbach-le-Haut France",
                "MEASURE": -999999
            },
            "geometry": {
                "type": "Point",
                "coordinates": [
                    7.4797281,
                    47.5247131
                ]
            }
        },
        {
            "type": "Feature",
            "properties": {
                "NAME": "FISH'S'THETIQUE",
                "Category": "FRENCH",
                "Address": "FISH'S'THETIQUE,17430 - Tonnay Charente,France",
                "MEASURE": -999999
            },
            "geometry": {
                "type": "Point",
                "coordinates": [
                    -0.8955711,
                    45.9449413
                ]
            }
        },
        {
            "type": "Feature",
            "properties": {
                "NAME": "Le monde des saveurs Sàrl",
                "Category": "INTERNATIONAL",
                "Address": "Le monde des saveurs Sàrl,Courtemaîche,Suisse",
                "MEASURE": -999999
            },
            "geometry": {
                "type": "Point",
                "coordinates": [
                    7.0764562,
                    47.4176569
                ]
            }
        },
        {
            "type": "Feature",
            "properties": {
                "NAME": "ODLYS",
                "Category": "FRENCH",
                "Address": "ODLYS,Poussan,France",
                "MEASURE": -999999
            },
            "geometry": {
                "type": "Point",
                "coordinates": [
                    3.6689843,
                    43.4876347
                ]
            }
        },
        {
            "type": "Feature",
            "properties": {
                "NAME": "Alguoa",
                "Category": "FRENCH",
                "Address": "30400 Villeneuve-les-Avignon, France",
                "MEASURE": -999999
            },
            "geometry": {
                "type": "Point",
                "coordinates": [
                    4.795053,
                    43.9813848
                ]
            }
        },
        {
            "type": "Feature",
            "properties": {
                "NAME": "sarl chez lucette et fils",
                "Category": "FRENCH",
                "Address": "sarl chez lucette et fils,Bonifacio,France",
                "MEASURE": -999999
            },
            "geometry": {
                "type": "Point",
                "coordinates": [
                    9.1601032,
                    41.3886616
                ]
            }
        },
        {
            "type": "Feature",
            "properties": {
                "NAME": "Buona Vita Concept Store",
                "Category": "INTERNATIONAL",
                "Address": "Buona Vita Concept Store,Watermael-Boitsfort,Belgique",
                "MEASURE": -999999
            },
            "geometry": {
                "type": "Point",
                "coordinates": [
                    4.4180282,
                    50.7967475
                ]
            }
        },
        {
            "type": "Feature",
            "properties": {
                "NAME": "100 % Frenchy",
                "Category": "FRENCH",
                "Address": "100 % Frenchy,Libourne,France",
                "MEASURE": -999999
            },
            "geometry": {
                "type": "Point",
                "coordinates": [
                    -0.2428479,
                    44.9156002
                ]
            }
        },
        {
            "type": "Feature",
            "properties": {
                "NAME": "Box lecture feel good",
                "Category": "FRENCH",
                "Address": "Box lecture feel good,Pessac-sur-Dordogne,France",
                "MEASURE": -999999
            },
            "geometry": {
                "type": "Point",
                "coordinates": [
                    0.0931857,
                    44.8190203
                ]
            }
        },
        {
            "type": "Feature",
            "properties": {
                "NAME": "L'Essentiel",
                "Category": "FRENCH",
                "Address": "L'Essentiel,Saint-Jorioz,France",
                "MEASURE": -999999
            },
            "geometry": {
                "type": "Point",
                "coordinates": [
                    6.160765,
                    45.8317242
                ]
            }
        },
        {
            "type": "Feature",
            "properties": {
                "NAME": "Origin'Bio",
                "Category": "FRENCH",
                "Address": "Origin'Bio,Plurien,France",
                "MEASURE": -999999
            },
            "geometry": {
                "type": "Point",
                "coordinates": [
                    -2.4020552,
                    48.6216012
                ]
            }
        },
        {
            "type": "Feature",
            "properties": {
                "NAME": "la souris verte",
                "Category": "FRENCH",
                "Address": "la souris verte,Cherbourg en Cotentin,France",
                "MEASURE": -999999
            },
            "geometry": {
                "type": "Point",
                "coordinates": [
                    -1.6249822,
                    49.6402522
                ]
            }
        },
        {
            "type": "Feature",
            "properties": {
                "NAME": "SARL Les Fées Mères",
                "Category": "FRENCH",
                "Address": "SARL Les Fées Mères,Charmes,France",
                "MEASURE": -999999
            },
            "geometry": {
                "type": "Point",
                "coordinates": [
                    6.3004209,
                    48.3623308
                ]
            }
        },
        {
            "type": "Feature",
            "properties": {
                "NAME": "Zen Attitude",
                "Category": "FRENCH",
                "Address": "Zen Attitude,Pontoise,France",
                "MEASURE": -999999
            },
            "geometry": {
                "type": "Point",
                "coordinates": [
                    2.0985107,
                    49.0501425
                ]
            }
        },
        {
            "type": "Feature",
            "properties": {
                "NAME": "Institut et bien être Le Saint Victorien",
                "Category": "FRENCH",
                "Address": "Institut et bien être Le Saint Victorien,Savignac-sur-Leyze,France",
                "MEASURE": -999999
            },
            "geometry": {
                "type": "Point",
                "coordinates": [
                    0.7954875,
                    44.4908113
                ]
            }
        },
        {
            "type": "Feature",
            "properties": {
                "NAME": "Bio Beautycare",
                "Category": "INTERNATIONAL",
                "Address": "Bio Beautycare,Hirschaid,Allemagne",
                "MEASURE": -999999
            },
            "geometry": {
                "type": "Point",
                "coordinates": [
                    10.9896355,
                    49.8168771
                ]
            }
        },
        {
            "type": "Feature",
            "properties": {
                "NAME": "syllavie's",
                "Category": "INTERNATIONAL",
                "Address": "syllavie's,Hauptstraße 1, 77694 Kehl, Germany",
                "MEASURE": -999999
            },
            "geometry": {
                "type": "Point",
                "coordinates": [
                    7.8067325,
                    48.5752417
                ]
            }
        },
        {
            "type": "Feature",
            "properties": {
                "NAME": "Revevasion",
                "Category": "FRENCH",
                "Address": "Revevasion,Bours,France",
                "MEASURE": -999999
            },
            "geometry": {
                "type": "Point",
                "coordinates": [
                    6.6953824,
                    49.206798899999988
                ]
            }
        },
        {
            "type": "Feature",
            "properties": {
                "NAME": "Audrey Savoye",
                "Category": "FRENCH",
                "Address": "Audrey Savoye,Péronne,France",
                "MEASURE": -999999
            },
            "geometry": {
                "type": "Point",
                "coordinates": [
                    2.9342567,
                    49.9299696
                ]
            }
        },
        {
            "type": "Feature",
            "properties": {
                "NAME": "L'atelier de Lynie",
                "Category": "INTERNATIONAL",
                "Address": "L'atelier de Lynie,Soignies,Belgique",
                "MEASURE": -999999
            },
            "geometry": {
                "type": "Point",
                "coordinates": [
                    4.0710462,
                    50.5768144
                ]
            }
        },
        {
            "type": "Feature",
            "properties": {
                "NAME": "Les trésors de Martine",
                "Category": "FRENCH",
                "Address": "Les trésors de Martine,Dordives,France",
                "MEASURE": -999999
            },
            "geometry": {
                "type": "Point",
                "coordinates": [
                    2.763714,
                    48.1478567
                ]
            }
        },
        {
            "type": "Feature",
            "properties": {
                "NAME": "CENTRE DE REMISE EN FORME",
                "Category": "FRENCH",
                "Address": "CENTRE DE REMISE EN FORME,ST Christol Les Ales,France",
                "MEASURE": -999999
            },
            "geometry": {
                "type": "Point",
                "coordinates": [
                    4.0801626,
                    44.0725922
                ]
            }
        },
        {
            "type": "Feature",
            "properties": {
                "NAME": "Terrame",
                "Category": "INTERNATIONAL",
                "Address": "Terrame,La Chaux-de-Fonds,Suisse",
                "MEASURE": -999999
            },
            "geometry": {
                "type": "Point",
                "coordinates": [
                    6.8315177,
                    47.1037954
                ]
            }
        },
        {
            "type": "Feature",
            "properties": {
                "NAME": "Natural Beauty Store",
                "Category": "INTERNATIONAL",
                "Address": "Natural Beauty Store,Winenne,Belgique",
                "MEASURE": -999999
            },
            "geometry": {
                "type": "Point",
                "coordinates": [
                    5.3091849,
                    50.1809703
                ]
            }
        },
        {
            "type": "Feature",
            "properties": {
                "NAME": "Beautiful",
                "Category": "FRENCH",
                "Address": "Beautiful,Auxerre,France",
                "MEASURE": -999999
            },
            "geometry": {
                "type": "Point",
                "coordinates": [
                    3.5796247,
                    47.792498699999989
                ]
            }
        },
        {
            "type": "Feature",
            "properties": {
                "NAME": "Greenhousebio",
                "Category": "INTERNATIONAL",
                "Address": "Greenhousebio,Thesaloniki,Grèce",
                "MEASURE": -999999
            },
            "geometry": {
                "type": "Point",
                "coordinates": [
                    22.9473427,
                    40.586123
                ]
            }
        },
        {
            "type": "Feature",
            "properties": {
                "NAME": "Studio beauté",
                "Category": "FRENCH",
                "Address": "Studio beauté,Mesnil Roc'h,France",
                "MEASURE": -999999
            },
            "geometry": {
                "type": "Point",
                "coordinates": [
                    -1.912365,
                    48.446937
                ]
            }
        },
        {
            "type": "Feature",
            "properties": {
                "NAME": "Flora la Cigogne",
                "Category": "FRENCH",
                "Address": "Flora la Cigogne,La Cadière d'Azur,France",
                "MEASURE": -999999
            },
            "geometry": {
                "type": "Point",
                "coordinates": [
                    5.7193443,
                    43.2109423
                ]
            }
        },
        {
            "type": "Feature",
            "properties": {
                "NAME": "SAS CEV SEV",
                "Category": "FRENCH",
                "Address": "SAS CEV SEV,Oberhoffen-sur-Moder,France",
                "MEASURE": -999999
            },
            "geometry": {
                "type": "Point",
                "coordinates": [
                    7.8754302,
                    48.7860779
                ]
            }
        },
        {
            "type": "Feature",
            "properties": {
                "NAME": "Cocoon",
                "Category": "FRENCH",
                "Address": "Cocoon,Brienne-le-Château,France",
                "MEASURE": -999999
            },
            "geometry": {
                "type": "Point",
                "coordinates": [
                    4.5286559,
                    48.3948459
                ]
            }
        },
        {
            "type": "Feature",
            "properties": {
                "NAME": "Zenzahasoin",
                "Category": "FRENCH",
                "Address": "45000 Orleans, France",
                "MEASURE": -999999
            },
            "geometry": {
                "type": "Point",
                "coordinates": [
                    1.9157977,
                    47.9108329
                ]
            }
        },
        {
            "type": "Feature",
            "properties": {
                "NAME": "Aseliance",
                "Category": "FRENCH",
                "Address": "Aseliance,Carcassonne,France",
                "MEASURE": -999999
            },
            "geometry": {
                "type": "Point",
                "coordinates": [
                    2.3538776,
                    43.2163338
                ]
            }
        },
        {
            "type": "Feature",
            "properties": {
                "NAME": "KIM POP",
                "Category": "FRENCH",
                "Address": "KIM POP,Vaires-sur-Marne,France",
                "MEASURE": -999999
            },
            "geometry": {
                "type": "Point",
                "coordinates": [
                    2.6404541,
                    48.8741256
                ]
            }
        },
        {
            "type": "Feature",
            "properties": {
                "NAME": "Cybele Envie",
                "Category": "FRENCH",
                "Address": "Cybele Envie,Nice,France",
                "MEASURE": -999999
            },
            "geometry": {
                "type": "Point",
                "coordinates": [
                    7.2559678,
                    43.7052471
                ]
            }
        },
        {
            "type": "Feature",
            "properties": {
                "NAME": "Nat'essentielle",
                "Category": "INTERNATIONAL",
                "Address": "Nat'essentielle,Thimister,Belgique",
                "MEASURE": -999999
            },
            "geometry": {
                "type": "Point",
                "coordinates": [
                    5.8550343,
                    50.676468899999989
                ]
            }
        },
        {
            "type": "Feature",
            "properties": {
                "NAME": "Pépites Hair&Beauty Shop",
                "Category": "FRENCH",
                "Address": "21320 Avosnes, France",
                "MEASURE": -999999
            },
            "geometry": {
                "type": "Point",
                "coordinates": [
                    4.642105,
                    47.36489
                ]
            }
        },
        {
            "type": "Feature",
            "properties": {
                "NAME": "secret2beauté",
                "Category": "FRENCH",
                "Address": "Secret2Beauté,1 Place de la Mairie, 60123 Bonneuil-en-Valois, France",
                "MEASURE": -999999
            },
            "geometry": {
                "type": "Point",
                "coordinates": [
                    2.991737,
                    49.284935
                ]
            }
        },
        {
            "type": "Feature",
            "properties": {
                "NAME": "Univers Discount",
                "Category": "FRENCH",
                "Address": "Univers Discount,Agde,France",
                "MEASURE": -999999
            },
            "geometry": {
                "type": "Point",
                "coordinates": [
                    3.5180857,
                    43.283055399999988
                ]
            }
        },
        {
            "type": "Feature",
            "properties": {
                "NAME": "NATUREA BEAUTE",
                "Category": "FRENCH",
                "Address": "NATUREA BEAUTE,Vendin le Vieil,France",
                "MEASURE": -999999
            },
            "geometry": {
                "type": "Point",
                "coordinates": [
                    2.8665347,
                    50.4742149
                ]
            }
        },
        {
            "type": "Feature",
            "properties": {
                "NAME": "Casual Mood",
                "Category": "INTERNATIONAL",
                "Address": "Casual Mood,Braine-l'Alleud,Belgique",
                "MEASURE": -999999
            },
            "geometry": {
                "type": "Point",
                "coordinates": [
                    4.3744283,
                    50.6853074
                ]
            }
        },
        {
            "type": "Feature",
            "properties": {
                "NAME": "Le Coin des Coquettes",
                "Category": "FRENCH",
                "Address": "Le Coin des Coquettes,Hebuterne,France",
                "MEASURE": -999999
            },
            "geometry": {
                "type": "Point",
                "coordinates": [
                    2.6361223,
                    50.1258096
                ]
            }
        },
        {
            "type": "Feature",
            "properties": {
                "NAME": "VIC ET MEL",
                "Category": "FRENCH",
                "Address": "VIC ET MEL,Lambersart,France",
                "MEASURE": -999999
            },
            "geometry": {
                "type": "Point",
                "coordinates": [
                    3.0157642,
                    50.65249
                ]
            }
        },
        {
            "type": "Feature",
            "properties": {
                "NAME": "KalyBeauty Bio",
                "Category": "FRENCH",
                "Address": "KalyBeauty Bio,L’Aigle,France",
                "MEASURE": -999999
            },
            "geometry": {
                "type": "Point",
                "coordinates": [
                    0.6254992,
                    48.7635988
                ]
            }
        },
        {
            "type": "Feature",
            "properties": {
                "NAME": "L'Eternelle Douceur",
                "Category": "FRENCH",
                "Address": "L'Eternelle Douceur,Secondigny,France",
                "MEASURE": -999999
            },
            "geometry": {
                "type": "Point",
                "coordinates": [
                    -0.4187874,
                    46.6095422
                ]
            }
        },
        {
            "type": "Feature",
            "properties": {
                "NAME": "AU SOLEIL D ASSIA",
                "Category": "FRENCH",
                "Address": "AU SOLEIL D ASSIA,Payns,France",
                "MEASURE": -999999
            },
            "geometry": {
                "type": "Point",
                "coordinates": [
                    3.976519,
                    48.383144
                ]
            }
        },
        {
            "type": "Feature",
            "properties": {
                "NAME": "o'bien etre de mams",
                "Category": "FRENCH",
                "Address": "o'bien etre de mams,Bruay-la-Buissière,France",
                "MEASURE": -999999
            },
            "geometry": {
                "type": "Point",
                "coordinates": [
                    2.6814399,
                    50.5136651
                ]
            }
        },
        {
            "type": "Feature",
            "properties": {
                "NAME": "Menta Comestica",
                "Category": "INTERNATIONAL",
                "Address": "Menta Comestica,Algeciras,Espagne",
                "MEASURE": -999999
            },
            "geometry": {
                "type": "Point",
                "coordinates": [
                    -5.4513868,
                    36.1434206
                ]
            }
        },
        {
            "type": "Feature",
            "properties": {
                "NAME": "Bien-être au nature'L",
                "Category": "FRENCH",
                "Address": "Bien-être au nature'L,Nancy,France",
                "MEASURE": -999999
            },
            "geometry": {
                "type": "Point",
                "coordinates": [
                    6.1635619,
                    48.7016305
                ]
            }
        },
        {
            "type": "Feature",
            "properties": {
                "NAME": "Web Extreme Ltd.",
                "Category": "INTERNATIONAL",
                "Address": "Web Extreme Ltd.,Plovdiv,Bulgarie",
                "MEASURE": -999999
            },
            "geometry": {
                "type": "Point",
                "coordinates": [
                    24.7562311,
                    42.141571
                ]
            }
        },
        {
            "type": "Feature",
            "properties": {
                "NAME": "Rev&Zen",
                "Category": "FRENCH",
                "Address": "Rev&Zen,Saint Georges d'Orques,France",
                "MEASURE": -999999
            },
            "geometry": {
                "type": "Point",
                "coordinates": [
                    3.7953766,
                    43.5593982
                ]
            }
        },
        {
            "type": "Feature",
            "properties": {
                "NAME": "TREBIO.FR",
                "Category": "FRENCH",
                "Address": "38760 Varces-Allieres-et-Risset, France",
                "MEASURE": -999999
            },
            "geometry": {
                "type": "Point",
                "coordinates": [
                    5.6826762,
                    45.0905796
                ]
            }
        },
        {
            "type": "Feature",
            "properties": {
                "NAME": "KAENBIO",
                "Category": "FRENCH",
                "Address": "KAENBIO,Agon Coutainville,France",
                "MEASURE": -999999
            },
            "geometry": {
                "type": "Point",
                "coordinates": [
                    -1.5984215,
                    49.0479667
                ]
            }
        },
        {
            "type": "Feature",
            "properties": {
                "NAME": "Zen et sens",
                "Category": "FRENCH",
                "Address": "Zen et sens,Saint Aubin de Baubigné,France",
                "MEASURE": -999999
            },
            "geometry": {
                "type": "Point",
                "coordinates": [
                    -0.6922267,
                    46.939815499999987
                ]
            }
        },
        {
            "type": "Feature",
            "properties": {
                "NAME": "NYLS SPRL \/ Les Savons de Lyna",
                "Category": "INTERNATIONAL",
                "Address": "NYLS SPRL \/ Les Savons de Lyna,Bruxelles,Belgique",
                "MEASURE": -999999
            },
            "geometry": {
                "type": "Point",
                "coordinates": [
                    4.3506475,
                    50.8390746
                ]
            }
        },
        {
            "type": "Feature",
            "properties": {
                "NAME": "Marine Bioty",
                "Category": "FRENCH",
                "Address": "85210 Saint-Aubin-la-Plaine, France",
                "MEASURE": -999999
            },
            "geometry": {
                "type": "Point",
                "coordinates": [
                    -1.058759,
                    46.506669
                ]
            }
        },